INAME	INUM	CAUSE	REP_DATE	START_DATE	IMT_TYPE	STATE	AREA	P_CNT	EXP_CTN	LAT	LONG	COUNTY
PIONEER	ID-BOF-000539	Undetermined	23-Sep-16	18-Jul-16	2	Idaho	188404	65.0	15-Oct-16	43.950	-115.762	Boise
SOUP COMPLEX	CA-MDF-000905	Not Reported	24-Sep-16	Not Reported	2	Not Reported	2647	Not Reported	Not Reported	41.281	-120.315	Not Reported
SOBERANES	CA-BEU-003422	Human	24-Sep-16	22-Jul-16	1	California	126693	78.0	30-Sep-16	36.461	-121.901	Monterey
CANYON	CA-AFV-003151	Undetermined	24-Sep-16	18-Sep-16		California	12742	100.0	24-Sep-16	34.720	-120.550	Santa Barbara
OWENS RIVER	CA-INF-001763	Undetermined	24-Sep-16	17-Sep-16		California	5443	85.0	01-Oct-16	37.780	-118.921	Mono
BEAVER CREEK	CO-RTF-000088	Human	23-Sep-16	19-Jun-16		Colorado	38380	75.0	21-Oct-16	40.945	-106.614	Jackson
FULTON	AZ-TNF-001361	Natural	23-Sep-16	12-Sep-16	1	Arizona	2266	68.0	30-Sep-16	34.300	-110.910	Gila
